id,State_Code,State_Name,State_ab,County,City,Place,Type,Primary,Zip_Code,Area_Code,ALand,AWater,Lat,Lon,Mean,Median,Stdev,sum_w
4002523,40,Oklahoma,OK,Adair County,Oklahoma City,Bell,Track,Track,73127,405,4543559,1527,35.4725181,-97.6627728,39373,31562,33362,860.624272175505
36029464,36,New York,NY,Albany County,Brooklyn,Albany city,Track,Track,11203,718,142464,0,40.6641582,-73.9420074,42578,32617,36075,319.890687685762
360215394,36,New York,NY,Albany County,Richmond Hill,Albany city,Track,Track,11418,718,219829,0,40.6984968,-73.8284961,70361,50538,58433,315.986073144909
360217784,36,New York,NY,Albany County,Clifton Park,Albany city,Track,Track,12065,518,16884295,2914788,42.7966851,-73.8116211,99343,88199,59178,248.280597239004
5402390,54,West Virginia,WV,Barbour County,Coal City,Philippi city,Track,Track,25823,304,329356868,1275956,37.6260109,-81.2164585,52700,40765,45818,1475.67707745732
26029341,26,Michigan,MI,Alcona County,Detroit,Hubbard Lake,Track,Track,48234,313,1079667,0,42.4277494,-83.0763573,37707,24597,42548,236.149952395441
51025104,51,Virginia,VA,Accomack County,Fredericksburg,Chincoteague,Track,Track,22408,540,18203158,1120550,38.2496542,-77.4229079,85126,69869,54436,380.210798799331
36024064,36,New York,NY,Albany County,Saratoga Springs,Albany city,Track,Track,12866,518,9646669,141107,43.0759547,-73.7643201,88525,71891,66850,1316.09476567178
360244,36,New York,NY,Albany County,Loudonville,Albany city,Track,Track,12211,518,2742331,79375,42.6996786,-73.7650276,117882,102112,74399,273.781156891855
17027299,17,Illinois,IL,Adams County,Richton Park,Camp Point,Track,Track,60471,708,2643928,45221,41.4924088,-87.7697665,47621,39088,32678,819.376257317298
72021576,72,Puerto Rico,PR,Adjuntas Municipio,Carolina,Adjuntas,Track,Track,979,787,218664,64817,18.4432811,-66.0217659,49311,49292,27125,353.416146585952
29012384,29,Missouri,MO,Christian County,Spokane,Spokane,CDP,place,65754,417,2187659,0,36.863219,-93.305568,64958,300000,15730,34.0309267204331
53011109,53,Washington,WA,Grays Harbor County,Elma,Malone,CDP,place,98541,360,23416339,14116,46.974382,-123.307427,60362,36788,61583,109.05735725269
48028798,48,Texas,TX,Anderson County,Dallas,Elkhart,Track,Track,75216,972,2325812,0,32.6951584,-96.7814709,30663,22365,24125,358.255997171881
902489,9,Connecticut,CT,Fairfield County,Middletown,Bethel,Track,Track,6457,860,2156003,0,41.5922334,-72.704025,77401,67139,48838,1636.57501309754
48025418,48,Texas,TX,Anderson County,Charlotte,Elkhart,Track,Track,78011,830,692944076,661366,28.832355,-98.7197745,69528,56774,53634,253.290293339219
4402967,44,Rhode Island,RI,Kent County,Block Island,Greene,Track,Track,2807,401,23521355,8258226,41.1768145,-71.5770852,76518,300000,37282,7.26608174134286
60213759,6,California,CA,Alameda County,Los Angeles,Alameda city,Track,Track,90035,310,814659,0,34.0387217,-118.4441579,86354,77492,65205,487.808210205129
23021055,23,Maine,ME,Androscoggin County,Orrington,Auburn city,Track,Track,4474,207,64726302,6067965,44.6887779,-68.7628054,75823,63476,55901,158.721102538953
47021450,47,Tennessee,TN,Anderson County,Brentwood,Clinton city,Track,Track,37027,615,7000284,30885,36.0276458,-86.8024746,121194,104353,87887,319.219586433084
1602800,16,Idaho,ID,Ada County,Soda Springs,Boise City city,Track,Track,83276,208,2936721178,75753773,42.8046919,-111.3877022,70815,62716,52945,319.450815551352
55022668,55,Wisconsin,WI,Adams County,Lake Mills,Adams city,Track,Track,53551,920,209011211,2327852,43.1499252,-88.8806225,60649,53854,37012,414.117682778906
3502885,35,New Mexico,NM,Bernalillo County,Albuquerque,Albuquerque city,Track,Track,87121,505,1977319,2922,35.049648,-106.7125801,33170,28282,29029,166.187654533954
2002690,20,Kansas,KS,Allen County,Eskridge,Gas city,Track,Track,66423,866,1081529517,4925327,38.8873022,-96.1643033,58821,53477,38914,555.945180103294
360218374,36,New York,NY,Albany County,Lindenhurst,Albany city,Track,Track,11757,631,2547637,147329,40.6811285,-73.3627424,72963,300000,43632,257.656390573241
17025619,17,Illinois,IL,Adams County,Northbrook,Camp Point,Track,Track,60062,847,2167634,0,42.1264867,-87.8429419,138349,132399,81771,190.083627947846
360219054,36,New York,NY,Albany County,Quogue,Albany city,Track,Track,11959,631,17767465,10100223,40.8241255,-72.5868779,83855,69485,51266,178.956519486942
17028479,17,Illinois,IL,Adams County,West Frankfort,Camp Point,Track,Track,62896,618,17943445,135403,37.8790249,-88.9087181,53858,44587,39003,443.712092505982
5402190,54,West Virginia,WV,Barbour County,Tad,Philippi city,Track,Track,25201,304,98565957,77955,38.2832126,-81.4925568,51120,43144,34923,1121.03151232652
53022549,53,Washington,WA,Adams County,Seattle,Hatton,Track,Track,98115,206,330715,0,47.6647406,-122.303595,28680,20131,26070,685.02740891701
390211713,39,Ohio,OH,Adams County,New Philadelphia,Rome,Track,Track,44663,330,117632861,1208865,40.4211825,-81.4666977,59738,53985,48619,376.683429225077
5102834,51,Virginia,VA,Accomack County,Sterling,Chincoteague,Track,Track,20165,571,2603486,64815,39.0372878,-77.3944404,155769,161248,67337,312.699338006743
51023164,51,Virginia,VA,Accomack County,Mclean,Chincoteague,Track,Track,22101,703,2415478,13552,38.9357929,-77.1936697,186359,300000,71852,58.0587557953388
40023523,40,Oklahoma,OK,Adair County,Tulsa,Bell,Track,Track,74104,918,1264358,0,36.14422,-95.9669138,26892,20573,23245,282.949406196423
29011994,29,Missouri,MO,Jackson County,Blue Springs,Lake Tapawingo city,City,place,64015,816,949999,336721,39.019966,-94.319191,88196,77520,55596,135.890582001941
42021804,42,Pennsylvania,PA,Adams County,Allentown,Abbottstown,Track,Track,18102,484,306093,0,40.6120714,-75.4716644,32304,19675,33323,893.148295096411
17021149,17,Illinois,IL,Adams County,Brookfield,Camp Point,Track,Track,60513,708,1029221,0,41.8174455,-87.8501113,88290,77813,60554,456.607871553705
602159,6,California,CA,Alameda County,Alameda,Alameda city,Track,Track,94501,510,582861,0,37.7778323,-122.2835979,57071,43007,50318,1165.27070887349
2602281,26,Michigan,MI,Alcona County,Elsie,Hubbard Lake,Track,Track,48831,989,90980068,758314,43.0723965,-84.423269,58310,50247,39791,524.578281460834
4002643,40,Oklahoma,OK,Adair County,Oklahoma City,Bell,Track,Track,73108,405,4918137,0,35.4357439,-97.6101299,52331,44898,34297,273.522092059968
60229169,6,California,CA,Alameda County,Anderson,Alameda city,Track,Track,96007,530,10832948,68915,40.4294831,-122.2988508,57413,43467,39815,195.060573122121
801849,8,Colorado,CO,Montezuma County,Cortez,Lewis,CDP,place,81321,970,8056413,0,37.501715,-108.660059,63030,300000,55926,103.498172115585
26024291,26,Michigan,MI,Alcona County,Traverse City,Hubbard Lake,Track,Track,49686,231,6311636,4471122,44.7768662,-85.5748058,90895,67760,65816,396.142750080691
37026754,37,North Carolina,NC,Alamance County,Ayden,Alamance,Track,Track,28513,252,33518136,0,35.4641875,-77.4376312,92231,74975,48790,174.552767034268
37022074,37,North Carolina,NC,Alamance County,Raleigh,Alamance,Track,Track,27616,919,5349802,0,35.8598798,-78.5897866,42790,33594,33017,1344.42319403648
60218759,6,California,CA,Alameda County,Seaside,Alameda city,Track,Track,93955,831,89619514,1199003,36.5954235,-121.7882216,71651,60335,50939,512.58098631131
3002447,30,Montana,MT,Beaverhead County,Columbia Falls,Wisdom,Track,Track,59912,406,65672170,1186164,48.3495935,-114.1134637,67437,65500,41711,274.151441776907
201610,2,Alaska,AK,Matanuska-Susitna Borough,Anchorage,Point MacKenzie,CDP,place,99501,907,395024280,6304383,61.355597,-150.16935,77110,84804,54957,37.7975359526381
120210670,12,Florida,FL,Alachua County,Miami,Gainesville city,Track,Track,33156,305,3472825,95898,25.6787012,-80.3289477,83779,48206,80878,210.893397830508
902549,9,Connecticut,CT,Fairfield County,New Haven,Bethel,Track,Track,6511,203,1464612,0,41.3274738,-72.9210376,74497,48930,71155,940.946909583757
6026429,6,California,CA,Alameda County,San Francisco,Alameda city,Track,Track,94112,415,819577,0,37.72862,-122.4571583,126130,121459,71232,406.335382735434
370224,37,North Carolina,NC,Alamance County,Burlington,Alamance,Track,Track,27217,336,65709877,4518089,36.200065,-79.4059533,50613,43317,36047,711.431491745588
19021445,19,Iowa,IA,Adair County,Mediapolis,Greenfield city,Track,Track,52637,319,390547104,26922550,40.9654425,-91.0608918,44233,32949,40243,170.160767994659
22022689,22,Louisiana,LA,Acadia Parish,Scott,Crowley city,Track,Track,70583,337,6613609,0,30.2398673,-92.0524413,37264,25297,41974,258.526492299985
36025704,36,New York,NY,Albany County,Bronx,Albany city,Track,Track,10462,718,124862,0,40.8564763,-73.8654305,37198,31452,30605,327.119416114927
1102291,11,District of Columbia,DC,District of Columbia,Washington,Washington city,Track,Track,20011,202,693964,566,38.9479653,-77.0118821,70263,28883,78127,184.621122456758
3702194,37,North Carolina,NC,Alamance County,Kannapolis,Alamance,Track,Track,28083,704,3087036,447631,35.4976616,-80.5817529,49024,36366,39500,490.019557213054
37027884,37,North Carolina,NC,Alamance County,Cary,Alamance,Track,Track,27513,919,5393988,91044,35.795402,-78.8193341,104868,90486,68383,426.566071987869
26021901,26,Michigan,MI,Alcona County,Roscommon,Hubbard Lake,Track,Track,48653,989,27907854,28042822,44.4687247,-84.6900585,50988,39377,39688,719.044820981049
3902763,39,Ohio,OH,Adams County,Strongsville,Rome,Track,Track,44149,440,6893924,0,41.3215228,-81.8572633,102956,89693,69159,721.392826117991
1024206,1,Alabama,AL,Autauga County,Hoover,Autaugaville,Track,Track,35242,205,10958163,801615,33.3868168,-86.7579464,114188,300000,46984,141.617511347335
7202786,72,Puerto Rico,PR,Adjuntas Municipio,San Juan,Adjuntas,Track,Track,926,787,2095981,0,18.3475996,-66.0851837,43078,23763,47278,1280.90113693944
6022289,6,California,CA,Alameda County,Pomona,Alameda city,Track,Track,91766,909,1311060,0,34.0483607,-117.7322415,49352,43057,33243,691.276070382137
2102179,21,Kentucky,KY,Adair County,Grayson,Columbia city,Track,Track,41143,606,110199706,979807,38.3494756,-82.8807556,46589,36177,36386,1867.64151457931
20257,2,Alaska,AK,Aleutians East Borough,Anchorage,Akutan city,Track,Track,99516,907,85707800,11963944,61.0532891,-149.7028074,159063,300000,77818,462.898380712633
17025919,17,Illinois,IL,Adams County,Schaumburg,Camp Point,Track,Track,60194,847,2092264,62727,42.0353003,-88.1397559,65062,62292,42867,637.364586553692
19012024,19,Iowa,IA,Benton County,Atkins,Newhall city,City,place,52206,319,818388,0,41.993329,-91.967341,70506,64833,43016,195.723885751743
40022583,40,Oklahoma,OK,Adair County,Bethany,Bell,Track,Track,73008,405,1287555,0,35.4969478,-97.6278457,42140,34307,24983,194.696291124192
4102432,41,Oregon,OR,Baker County,Salem,Baker City city,Track,Track,97301,503,3762061,0,44.9404975,-122.9989082,37456,30379,28615,1460.64828562454
1702269,17,Illinois,IL,Adams County,Chicago,Camp Point,Track,Track,60610,773,327251,0,41.9074122,-87.6409015,79682,23660,87549,1043.0082655077
501987,5,Arkansas,AR,Washington County,Sonora,Goshen,Town,place,72764,479,29650745,644867,36.102458,-94.001579,112207,99636,79398,233.056491455792
48026328,48,Texas,TX,Anderson County,San Antonio,Elkhart,Track,Track,78227,210,1944801,13845,29.441304,-98.5939349,33456,26421,25592,527.740075662825
60213649,6,California,CA,Alameda County,Los Angeles,Alameda city,Track,Track,90059,323,475994,0,33.932376,-118.2502423,23353,12486,22296,264.844974397852
51026324,51,Virginia,VA,Accomack County,Norfolk,Chincoteague,Track,Track,23523,757,2686194,1188495,36.8333375,-76.2836407,39171,33843,25864,269.355395410206
6029579,6,California,CA,Alameda County,Concord,Alameda city,Track,Track,94519,925,2819834,0,37.9762383,-122.01218,68231,300000,52766,228.559564595591
42022774,42,Pennsylvania,PA,Adams County,Philadelphia,Abbottstown,Track,Track,19135,215,3322103,1643545,40.0189334,-75.0399564,34740,26934,29626,247.187534474484
42023594,42,Pennsylvania,PA,Adams County,Tarentum,Abbottstown,Track,Track,15084,724,48577795,12854,40.6489715,-79.8716963,52641,53406,26499,185.057639994102
60217119,6,California,CA,Alameda County,Gardena,Alameda city,Track,Track,90249,310,1899614,47515,33.9112721,-118.3195843,55800,52730,34950,321.07890434433
3702554,37,North Carolina,NC,Alamance County,Durham,Alamance,Track,Track,27701,919,1025538,0,35.999957,-78.8860285,35910,24719,34291,588.20787724303
19022645,19,Iowa,IA,Adair County,Ankeny,Greenfield city,Track,Track,50021,515,6303493,0,41.7117183,-93.5819509,74397,55811,60879,193.290341873768
42021224,42,Pennsylvania,PA,Adams County,Millersburg,Abbottstown,Track,Track,17061,717,67070706,13838292,40.5742517,-76.9262375,68347,57563,49291,966.753937475137
51026264,51,Virginia,VA,Accomack County,Norfolk,Chincoteague,Track,Track,23529,757,1391161,40083,36.8821639,-76.3067789,35973,22933,46550,287.418015644672
17026749,17,Illinois,IL,Adams County,Burbank,Camp Point,Track,Track,60459,708,2267569,0,41.7539907,-87.7530181,71570,48918,66754,236.392938708982
48023218,48,Texas,TX,Anderson County,Mission,Elkhart,Track,Track,78572,956,25934847,0,26.2632802,-98.2898432,78250,59664,67967,1466.7827050457
60216359,6,California,CA,Alameda County,Downey,Alameda city,Track,Track,90242,562,2200112,28087,33.9131473,-118.1275755,86418,79207,34826,90.3889128065911
4024283,4,Arizona,AZ,Apache County,Chandler,Chinle,Track,Track,85249,480,2589729,0,33.2116679,-111.8151375,43377,34291,35465,454.418199329875
2902604,29,Missouri,MO,Adair County,Lee's Summit,Kirksville city,Track,Track,64064,816,10737175,53553,38.9748942,-94.34891,110676,100322,60847,397.06699159245
480220928,48,Texas,TX,Anderson County,Jarrell,Elkhart,Track,Track,76537,512,105081965,437157,30.7887196,-97.5781106,78386,300000,66863,135.129805196651
4101795,41,Oregon,OR,Linn County,Tangent,Tangent city,City,place,97389,541,9781482,0,44.54769,-123.110935,55224,44861,43004,244.189852042809
17021319,17,Illinois,IL,Adams County,Chicago Heights,Camp Point,Track,Track,60411,708,1629732,0,41.5321711,-87.6427436,71375,69192,48043,611.824323991229
480218578,48,Texas,TX,Anderson County,Fort Worth,Elkhart,Track,Track,76119,817,2697831,0,32.6708807,-97.2749395,41956,31384,30047,315.421864596968
24024387,24,Maryland,MD,Allegany County,Mechanicsville,Little Orleans,Track,Track,20659,301,59761650,222855,38.3591278,-76.6248011,109365,300000,60617,72.4950678451138
120215590,12,Florida,FL,Alachua County,Lake Helen,Gainesville city,Track,Track,32744,386,10131108,787188,28.9740516,-81.1992478,63078,51091,53214,481.948652823352
20011327,20,Kansas,KS,Scott County,Scott City,Scott City city,City,place,67871,620,7156988,0,38.479035,-100.902246,66946,52217,47033,995.151475806439
6027549,6,California,CA,Alameda County,Kenwood,Alameda city,Track,Track,95452,707,54641623,41301,38.4514901,-122.5502357,72844,61240,54323,935.661889693437
360213374,36,New York,NY,Albany County,New York,Albany city,Track,Track,10029,212,177939,0,40.793827,-73.9451333,83640,58119,62762,142.394535781424
18024255,18,Indiana,IN,Adams County,Indianapolis,Berne city,Track,Track,46226,317,2669778,0,39.8477641,-86.0368063,35881,31588,33258,453.490971956478
51022194,51,Virginia,VA,Accomack County,Arlington,Chincoteague,Track,Track,22204,703,284983,0,38.8510432,-77.0982611,85282,56424,72560,155.292159744537
360217154,36,New York,NY,Albany County,Staten Island,Albany city,Track,Track,10306,718,1407432,0,40.5704889,-74.1318818,129234,300000,76473,137.091537483257
12027870,12,Florida,FL,Alachua County,Tampa,Gainesville city,Track,Track,33618,813,2005027,326940,28.0642144,-82.4932317,44282,30791,41513,283.195674559426
9022709,9,Connecticut,CT,Fairfield County,North Haven,Bethel,Track,Track,6473,203,9886371,55873,41.4063301,-72.8448305,83729,78786,57420,298.981421600558
60228309,6,California,CA,Alameda County,Santa Clara,Alameda city,Track,Track,95050,408,1612246,0,37.3430376,-121.9443765,92064,300000,54265,135.190839248047
4702110,47,Tennessee,TN,Anderson County,Elizabethton,Clinton city,Track,Track,37643,423,18045657,0,36.2975897,-82.2109598,40000,34351,27727,848.376155685009
48013990,48,Texas,TX,Sherman County,Stratford,Stratford city,City,place,79084,806,5267972,0,36.336609,-102.073915,61336,48079,46972,423.351295247297
45021068,45,South Carolina,SC,Abbeville County,Rock Hill,Abbeville city,Track,Track,29732,803,3494181,0,34.9607591,-81.0222741,50058,38477,40066,1520.3103618303
34023755,34,New Jersey,NJ,Atlantic County,Greenwich,Absecon city,Track,Track,8323,856,93644584,3946136,39.3962734,-75.3675507,80564,70491,53895,269.748006191687
27023943,27,Minnesota,MN,Aitkin County,Rochester,Aitkin city,Track,Track,55901,507,2721940,0,44.0710523,-92.4802326,55971,300000,38892,424.155470572192
47023260,47,Tennessee,TN,Anderson County,Dandridge,Clinton city,Track,Track,37725,865,118487998,52900713,35.9583345,-83.3691093,51325,35519,51398,596.774655298721
41021062,41,Oregon,OR,Baker County,Canby,Baker City city,Track,Track,97013,503,2722586,29201,45.252494,-122.701224,51119,39533,38582,473.352138477814
21022769,21,Kentucky,KY,Adair County,Louisville,Columbia city,Track,Track,40222,502,2075233,5432,38.2572718,-85.6121344,65402,61973,37115,276.25253361721
5102164,51,Virginia,VA,Accomack County,Pilgrim Knob,Chincoteague,Track,Track,24634,276,173313609,162455,37.2450497,-81.8256517,48022,35690,47330,427.880462806915
12025300,12,Florida,FL,Alachua County,Wilton Manors,Gainesville city,Track,Track,33311,954,2560602,0,26.1613419,-80.1472585,73885,82811,52200,137.883794808709
4802248,48,Texas,TX,Anderson County,San Antonio,Elkhart,Track,Track,78210,210,986967,0,29.4064086,-98.4787846,47431,37130,44660,416.247190079798
102186,1,Alabama,AL,Autauga County,Evergreen,Autaugaville,Track,Track,36401,251,90973774,334237,31.4626914,-86.9984985,34206,16878,39063,540.009840509178
39022263,39,Ohio,OH,Adams County,Union,Rome,Track,Track,45322,937,11972358,0,39.9067008,-84.3198301,64187,55180,41244,1410.85137227864
27022153,27,Minnesota,MN,Aitkin County,Eagan,Aitkin city,Track,Track,55122,952,2054225,85965,44.7876283,-93.2188668,132740,300000,73105,155.654110199822
48022488,48,Texas,TX,Anderson County,Houston,Elkhart,Track,Track,77021,713,2269865,18103,29.7045424,-95.3355622,50914,39188,48931,633.532268943846
51025954,51,Virginia,VA,Accomack County,Harrisonburg,Chincoteague,Track,Track,22801,540,5634486,4639,38.4423657,-78.8952056,76986,300000,48419,410.48052474541
21023029,21,Kentucky,KY,Adair County,Louisville,Columbia city,Track,Track,40214,502,7164810,35290,38.141576,-85.8034035,59711,55922,32543,246.888011933225
55021938,55,Wisconsin,WI,Adams County,Madison,Adams city,Track,Track,53703,608,4124092,52550,43.0429984,-89.3861019,42378,300000,24930,371.160407283341
37021834,37,North Carolina,NC,Alamance County,Mount Airy,Alamance,Track,Track,27030,336,15791070,179001,36.5398584,-80.5961639,66329,45103,67636,537.670931781752
3101774,31,Nebraska,NE,Boyd County,Butte,Butte,Village,place,68722,402,1080790,0,42.912454,-98.847904,42126,37007,30167,117.094358260731
12021540,12,Florida,FL,Alachua County,Paisley,Gainesville city,Track,Track,32767,352,333279909,22818528,29.1148308,-81.5606553,41850,29233,41945,1020.59517868553
13021853,13,Georgia,GA,Appling County,Lagrange,Baxley city,Track,Track,30241,706,61970179,186870,33.0195698,-84.9274423,45779,29814,45249,1408.03845329373
801729,8,Colorado,CO,Clear Creek County,Georgetown,Empire,Town,place,80444,303,643480,5800,39.75971,-105.682813,58245,40442,50347,102.996494774403
3401705,34,New Jersey,NJ,Union County,Scotch Plains,Fanwood,Borough,place,7076,908,3469670,0,40.641701,-74.385692,125178,115335,70706,793.836823379022
36025964,36,New York,NY,Albany County,Bronx,Albany city,Track,Track,10467,718,204657,0,40.8617366,-73.8631301,41604,27438,41050,259.223278443934
60221079,6,California,CA,Alameda County,Riverside,Alameda city,Track,Track,92504,951,1228758,0,33.9518517,-117.4237908,54653,47409,35880,268.3576681067
53022979,53,Washington,WA,Adams County,Kirkland,Hatton,Track,Track,98033,425,1408906,0,47.7043393,-122.1992667,121493,110508,72915,177.585307267712
12011493,12,Florida,FL,Polk County,Haines City,Haines City city,City,place,33844,863,48040501,3461603,28.109845,-81.615699,44470,34171,37152,5119.19442577758
4202714,42,Pennsylvania,PA,Adams County,Quakertown,Abbottstown,Track,Track,18951,215,1570005,7624,40.4393683,-75.3412434,64604,55622,43756,473.278266694993
26021701,26,Michigan,MI,Alcona County,Oak Park,Hubbard Lake,Track,Track,48237,248,2525741,0,42.4668124,-83.1918645,68104,63150,43841,1208.89623615064
17025449,17,Illinois,IL,Adams County,Chicago,Camp Point,Track,Track,60620,773,998832,0,41.7268625,-87.6579016,55078,35639,50982,195.362153827726
1802245,18,Indiana,IN,Adams County,Muncie,Berne city,Track,Track,47302,765,3453874,106937,40.1848521,-85.3554957,34293,26838,26850,1111.66355704724
2602691,26,Michigan,MI,Alcona County,Jackson,Hubbard Lake,Track,Track,49201,517,2913483,1136,42.2609849,-84.3850012,39487,31965,31583,1091.92499306159
5002695,50,Vermont,VT,Addison County,Chester,Bristol,Track,Track,5143,802,309163998,1334359,43.2889397,-72.6929119,39502,22510,46294,370.892621678657
36029674,36,New York,NY,Albany County,Brooklyn,Albany city,Track,Track,11207,718,134881,0,40.6878787,-73.9071509,29406,16442,33176,276.581379426434
51026944,51,Virginia,VA,Accomack County,Virginia Beach,Chincoteague,Track,Track,23452,757,5816246,3486629,36.8810013,-76.0858355,170189,184288,73080,85.488823650131
6027469,6,California,CA,Alameda County,Fairfield,Alameda city,Track,Track,94533,707,1309484,0,38.265491,-122.0295802,50885,38036,46205,1068.88939601709
24024677,24,Maryland,MD,Allegany County,Berlin,Little Orleans,Track,Track,21811,410,39317450,20282766,38.275427,-75.1518692,45722,27842,53179,415.321670376005
12022020,12,Florida,FL,Alachua County,Hobe Sound,Gainesville city,Track,Track,33455,772,57415053,1234935,27.0187292,-80.1809732,125331,300000,81602,156.792705984873
1022186,1,Alabama,AL,Autauga County,Vina,Autaugaville,Track,Track,35593,256,145933248,3961461,34.4392881,-88.0399565,37300,300000,28404,215.298791925674
102606,1,Alabama,AL,Autauga County,Opelika,Autaugaville,Track,Track,36801,334,4310558,34936,32.6330378,-85.3853644,30665,22207,31217,1075.21196232982
480216768,48,Texas,TX,Anderson County,Houston,Elkhart,Track,Track,77060,936,68389233,15207987,30.475977,-95.5389361,84781,78796,60486,580.474520485432
4402527,44,Rhode Island,RI,Kent County,Providence,Greene,Track,Track,2909,401,1218292,0,41.8118409,-71.4474792,57345,60598,35360,271.251176823729
37021394,37,North Carolina,NC,Alamance County,Huntersville,Alamance,Track,Track,28078,980,7572589,91061,35.3413691,-80.9008142,80633,71493,52866,476.331887087186
55022628,55,Wisconsin,WI,Adams County,Mineral Point,Adams city,Track,Track,53565,608,157167303,244685,42.8707141,-90.147391,72307,65752,45145,143.557777135242
24023517,24,Maryland,MD,Allegany County,Silver Spring,Little Orleans,Track,Track,20904,301,4487399,2724,39.0601655,-76.9902806,65185,31033,62375,268.359915827477
240257,24,Maryland,MD,Allegany County,Glen Burnie,Little Orleans,Track,Track,21060,410,2052526,30454,39.153714,-76.6069592,81063,73943,50978,528.59617111258
32021457,32,Nevada,NV,Churchill County,North Las Vegas,Fallon city,Track,Track,89030,702,1339423,0,36.2104079,-115.156451,43089,35682,28546,345.783935880156
42013356,42,Pennsylvania,PA,Lancaster County,Lancaster,Smoketown,CDP,place,17602,717,1484166,37829,40.036195,-76.204465,73250,300000,36009,68.1966477338961
12024390,12,Florida,FL,Alachua County,Newberry,Gainesville city,Track,Track,32669,352,148112102,6700233,29.5839776,-82.6230377,54486,54828,34567,311.811591193864
4402687,44,Rhode Island,RI,Kent County,Cumberland,Greene,Track,Track,2864,401,17763719,327042,41.9622838,-71.4091957,71197,32357,70477,455.119870314404
360215664,36,New York,NY,Albany County,Woodside,Albany city,Track,Track,11377,718,151334,0,40.7519327,-73.899483,69463,48090,53614,216.460908171105
60216729,6,California,CA,Alameda County,Long Beach,Alameda city,Track,Track,90813,562,324505,0,33.793484,-118.1915444,37187,24828,35563,411.355873250291
360216374,36,New York,NY,Albany County,Flushing,Albany city,Track,Track,11367,718,1004772,0,40.7338803,-73.8223553,102479,71966,73808,102.461014712709
3102547,31,Nebraska,NE,Adams County,Hastings,Ayr,Track,Track,68901,402,1644626,0,40.5864511,-98.4083092,52338,300000,33985,160.995886411226
37026624,37,North Carolina,NC,Alamance County,Hampstead,Alamance,Track,Track,28443,910,21146155,44942,34.401848,-77.6218025,70303,46693,58921,649.04690196737
25021420,25,Massachusetts,MA,Barnstable County,Millbury,Barnstable Town city,Track,Track,1527,508,14137777,734927,42.2149058,-71.7457772,87422,76898,57473,1020.43401859571
8022220,8,Colorado,CO,Adams County,Georgetown,Brighton city,Track,Track,80444,303,524001542,2029604,39.7068627,-105.8380111,73194,55029,55536,389.919057246931
5402320,54,West Virginia,WV,Barbour County,Morgantown,Philippi city,Track,Track,26508,304,97940987,1782960,39.5211451,-79.9885861,90966,74154,63529,644.165568619073
8022750,8,Colorado,CO,Adams County,Aurora,Brighton city,Track,Track,80016,720,45963360,151906,39.5477357,-104.7135658,118737,300000,58776,180.246304953465
54021700,54,West Virginia,WV,Barbour County,Tunnelton,Philippi city,Track,Track,26444,304,163680830,303190,39.4040079,-79.8302638,45738,43638,30974,283.124245992453
4021723,4,Arizona,AZ,Apache County,Flagstaff,Chinle,Track,Track,86001,928,6266288,0,35.1881088,-111.6816587,29332,18557,30244,383.376355916235
360219194,36,New York,NY,Albany County,Eldred,Albany city,Track,Track,12732,845,129648056,4832603,41.5673669,-74.8865216,61393,45537,54841,304.819701017302
18023205,18,Indiana,IN,Adams County,Remington,Berne city,Track,Track,47977,219,320994910,369007,40.8300031,-87.1592004,73122,66905,41918,288.385357075761
51022434,51,Virginia,VA,Accomack County,Rustburg,Chincoteague,Track,Track,24588,804,176199695,237634,37.2552931,-79.0137311,54661,42668,40704,491.250790269587
13023983,13,Georgia,GA,Appling County,Decatur,Baxley city,Track,Track,30034,678,6873898,56288,33.6954062,-84.2133404,46723,39363,28953,527.644321326967
1902945,19,Iowa,IA,Adair County,Waterloo,Greenfield city,Track,Track,50703,319,10092546,0,42.509249,-92.2952693,53477,45220,40614,286.957592431875
9022119,9,Connecticut,CT,Fairfield County,Glastonbury,Bethel,Track,Track,6033,860,8177207,701536,41.714445,-72.6137477,87988,300000,56620,244.988043847812
902379,9,Connecticut,CT,Fairfield County,Hartford,Bethel,Track,Track,6105,860,701958,0,41.7676854,-72.6985776,35396,28344,27735,1874.19274685935
5401712,54,West Virginia,WV,Fayette County,Oak Hill,Hilltop,CDP,place,25901,304,1688989,5920,37.938145,-81.150437,37169,300000,26238,169.664230908189
60212909,6,California,CA,Alameda County,Los Angeles,Alameda city,Track,Track,90017,213,1101206,0,34.0468663,-118.2616827,77583,53067,74436,1169.33906429552
3002667,30,Montana,MT,Beaverhead County,Helena,Wisdom,Track,Track,59601,406,42688331,63768,46.5762576,-112.0806968,78815,63344,52465,180.757430716314
12027540,12,Florida,FL,Alachua County,Tampa,Gainesville city,Track,Track,33605,813,818242,0,27.9696358,-82.4470715,28485,18813,32023,329.478668785564
1702899,17,Illinois,IL,Adams County,Palatine,Camp Point,Track,Track,60067,847,10117607,70,42.1176885,-88.0922951,135336,122600,77946,707.307251082489
12023640,12,Florida,FL,Alachua County,Lakeland,Gainesville city,Track,Track,33813,863,3625755,1184601,27.9689754,-81.9356482,101199,89728,66072,433.372655478165
51024794,51,Virginia,VA,Accomack County,Manassas,Chincoteague,Track,Track,20109,703,3154226,266,38.7793663,-77.4976685,100141,87502,51573,121.518792993526
26029851,26,Michigan,MI,Alcona County,Detroit,Hubbard Lake,Track,Track,48235,313,1239900,0,42.4409076,-83.2102951,39261,27760,38835,528.908966558311
48023268,48,Texas,TX,Anderson County,Cumby,Elkhart,Track,Track,75433,903,419942993,8226987,33.1083428,-95.7849064,59736,47001,48085,1083.62370838149
502416,5,Arkansas,AR,Arkansas County,West Helena,Stuttgart city,Track,Track,72390,870,28800309,0,34.5691581,-90.6647991,39977,25018,40854,1750.2322140701
55011117,55,Wisconsin,WI,Door County,Washington Island,Ellison Bay,CDP,place,54246,920,6894115,0,45.255255,-87.072865,59448,50120,47118,58.5298505508172
47021350,47,Tennessee,TN,Anderson County,Hendersonville,Clinton city,Track,Track,37075,615,9926530,107545,36.3663389,-86.5834601,110525,101195,65268,303.080567727441
1002122,10,Delaware,DE,Kent County,Newark,Camden,Track,Track,19711,302,4198230,0,39.6726333,-75.7439453,36204,19540,41778,648.884361942286
26027951,26,Michigan,MI,Alcona County,Rochester Hills,Hubbard Lake,Track,Track,48307,248,3367768,0,42.6616389,-83.1421395,57118,300000,38842,412.789551227348
60228409,6,California,CA,Alameda County,San Jose,Alameda city,Track,Track,95124,408,2290468,0,37.2428218,-121.9143244,164270,300000,73523,87.8573499127995
37027264,37,North Carolina,NC,Alamance County,Clinton,Alamance,Track,Track,28328,910,279318968,394071,34.8292527,-78.4009507,44667,34755,37639,404.951040104645
201370,2,Alaska,AK,Denali Borough,Anderson,Anderson city,City,place,99744,907,113285111,9169124,64.308281,-149.163187,93374,300000,43837,26.5311441065536
802280,8,Colorado,CO,Adams County,Boulder,Brighton city,Track,Track,80303,720,30457393,4298046,40.0339193,-105.1840578,101981,77385,78994,296.218513657923
29021964,29,Missouri,MO,Adair County,Salisbury,Kirksville city,Track,Track,65281,660,447684427,4328774,39.4085029,-92.8068549,68444,58428,49835,132.160752843002
60259,6,California,CA,Alameda County,Oakland,Alameda city,Track,Track,94606,510,519054,0,37.7939452,-122.2330985,56247,41818,50478,871.291252438947
120215370,12,Florida,FL,Alachua County,Daytona Beach,Gainesville city,Track,Track,32118,386,1343553,1086953,29.2619163,-81.0270733,46598,28511,41026,303.086573627933
42026714,42,Pennsylvania,PA,Adams County,Halifax,Abbottstown,Track,Track,17032,717,290739428,17527777,40.4918306,-76.832555,50114,46050,37272,184.624136225739
3402485,34,New Jersey,NJ,Atlantic County,Stratford,Absecon city,Track,Track,8084,856,2829472,0,39.82869,-75.0215929,80312,71598,52778,774.189091625695
55025748,55,Wisconsin,WI,Adams County,Oshkosh,Adams city,Track,Track,54904,920,15922445,42204,43.9923161,-88.61,84660,300000,56086,279.321038901555
39027933,39,Ohio,OH,Adams County,Fredericktown,Rome,Track,Track,43019,740,120272423,3322216,40.5094266,-82.5627266,48721,38282,41172,271.323936141329
19012034,19,Iowa,IA,Dubuque County,Dyersville,New Vienna city,City,place,52040,563,1207105,0,42.54772,-91.113885,58455,53522,42369,115.494615982536
37011952,37,North Carolina,NC,Columbus County,Tabor City,Tabor City,Town,place,28463,910,8609425,9148,34.154503,-78.873181,36077,16499,48246,873.131489767455
5602344,56,Wyoming,WY,Albany County,Burns,Laramie city,Track,Track,82053,307,2729238092,1316814,41.2408635,-104.3404666,62849,58746,40217,444.180327645053
47023350,47,Tennessee,TN,Anderson County,Knoxville,Clinton city,Track,Track,37919,865,5017030,0,35.9178696,-84.0448155,53300,39692,38639,644.949314758424
4202614,42,Pennsylvania,PA,Adams County,Claysburg,Abbottstown,Track,Track,16625,814,93886710,0,40.3127193,-78.5081492,50265,37979,40891,1077.28854870622
42023004,42,Pennsylvania,PA,Adams County,Fredericktown,Abbottstown,Track,Track,15333,724,13118636,661656,39.9977752,-80.0211954,52749,45253,40251,593.035702858919
55021338,55,Wisconsin,WI,Adams County,Waupaca,Adams city,Track,Track,54981,715,181973396,4056804,44.281286,-89.108478,72331,64517,50215,1108.18427979449
2502540,25,Massachusetts,MA,Barnstable County,Easthampton,Barnstable Town city,Track,Track,1027,413,17671761,83543,42.2599735,-72.693877,88681,81497,57369,980.245540818537
12026630,12,Florida,FL,Alachua County,Jacksonville,Gainesville city,Track,Track,32250,904,4143318,1324126,30.2580307,-81.3906783,115258,87467,76691,351.941449499763
1102321,11,District of Columbia,DC,District of Columbia,Washington,Washington city,Track,Track,20010,202,210638,0,38.9288689,-77.0299525,98101,88763,72323,295.739764219416
420211524,42,Pennsylvania,PA,Adams County,Philadelphia,Abbottstown,Track,Track,19152,215,1016206,0,40.0570427,-75.0283288,88699,300000,59819,182.425761235858
4202254,42,Pennsylvania,PA,Adams County,Pittsburgh,Abbottstown,Track,Track,15228,412,1527654,0,40.3718229,-80.0426207,98135,70717,80551,701.050570978065
60213289,6,California,CA,Alameda County,Los Angeles,Alameda city,Track,Track,90011,323,426940,0,34.0218419,-118.2570623,37079,25700,36339,296.059569128755
39029213,39,Ohio,OH,Adams County,Caledonia,Rome,Track,Track,43314,740,246744813,44119,40.6226125,-82.9955211,72437,300000,43833,170.495229747517
35021135,35,New Mexico,NM,Bernalillo County,Las Cruces,Albuquerque city,Track,Track,88001,505,2659876,0,32.3100136,-106.7370238,54656,49165,32956,483.716041844315
29021904,29,Missouri,MO,Adair County,Raymore,Kirksville city,Track,Track,64083,816,15252945,714720,38.8194542,-94.4751442,78631,300000,38481,518.099736672075
28021775,28,Mississippi,MS,Adams County,Meridian,Cloverdale,Track,Track,39307,601,10875370,115845,32.3359959,-88.7391273,13810,11007,11242,276.144083288329
802320,8,Colorado,CO,Adams County,Lafayette,Brighton city,Track,Track,80026,720,21509371,149853,39.9687243,-105.0817956,57170,44890,42114,1924.66966103812
2402727,24,Maryland,MD,Allegany County,Rockville,Little Orleans,Track,Track,20850,301,1914505,3692,39.083326,-77.1673715,136863,126043,73893,405.03584098653
2002170,20,Kansas,KS,Allen County,Hamilton,Gas city,Track,Track,66853,620,1751827979,9941614,37.9879569,-96.2256067,49473,38406,38184,638.310438192637
5601381,56,Wyoming,WY,Park County,Powell,Powell city,City,place,82435,307,10985012,0,44.761783,-108.757581,55720,48904,37673,1620.57407413764
26022751,26,Michigan,MI,Alcona County,Romulus,Hubbard Lake,Track,Track,48174,734,5542525,0,42.2597019,-83.3686906,56062,37613,50031,758.02669933312
17029429,17,Illinois,IL,Adams County,Round Lake,Camp Point,Track,Track,60073,847,1976361,0,42.3590186,-88.094334,58880,51320,39370,189.059360013569
802170,8,Colorado,CO,Adams County,Aurora,Brighton city,Track,Track,80011,303,1326877,0,39.7292877,-104.8336709,44714,29988,41953,898.726441391001
36026884,36,New York,NY,Albany County,Horseheads,Albany city,Track,Track,14845,607,5963473,33827,42.1672451,-76.8243943,44637,38379,33852,208.192543737207
7202406,72,Puerto Rico,PR,Adjuntas Municipio,Caguas,Adjuntas,Track,Track,726,787,11528572,340848,18.2459516,-65.9995002,69133,56122,57398,2265.1006670271
6025759,6,California,CA,Alameda County,San Diego,Alameda city,Track,Track,92101,619,739296,0,32.7155303,-117.1521135,57902,33575,58622,1969.42125209558
27011695,27,Minnesota,MN,Lake of the Woods County,Warroad,Roosevelt city,City,place,56763,218,2658753,0,48.806956,-95.100976,42499,300000,1826,2.0
6023819,6,California,CA,Alameda County,Grass Valley,Alameda city,Track,Track,95945,530,58563902,22539,39.1744271,-121.1052442,71862,57035,52527,529.941109007265
37027334,37,North Carolina,NC,Alamance County,Albemarle,Alamance,Track,Track,28001,704,8090121,0,35.3548541,-80.1882378,75364,60349,70242,187.857715656129
13024813,13,Georgia,GA,Appling County,Atlanta,Baxley city,Track,Track,30342,404,6266986,77322,33.8680492,-84.3577716,193870,300000,72819,102.62359850794
48021478,48,Texas,TX,Anderson County,Mesquite,Elkhart,Track,Track,75150,972,2994155,0,32.8361978,-96.6257805,43319,37307,29549,1399.02923838603
12028580,12,Florida,FL,Alachua County,Mascotte,Gainesville city,Track,Track,34753,352,68244497,28015464,28.6209928,-81.9222133,61493,58811,33583,952.749150689407
2802295,28,Mississippi,MS,Adams County,Pascagoula,Cloverdale,Track,Track,39581,228,5090948,816377,30.3814623,-88.5414763,50167,34805,46500,660.804273664215
49022032,49,Utah,UT,Beaver County,Spanish Fork,Beaver city,Track,Track,84660,801,1635097,0,40.0891327,-111.607865,69442,300000,36593,210.155201709963
34025525,34,New Jersey,NJ,Atlantic County,Highland Park,Absecon city,Track,Track,8904,732,1289426,0,40.5007036,-74.418221,102411,300000,56360,117.157323337462
51026304,51,Virginia,VA,Accomack County,Norfolk,Chincoteague,Track,Track,23507,757,1274685,408259,36.8588033,-76.3025393,68718,47799,62787,387.343521908375
36028054,36,New York,NY,Albany County,Orchard Park,Albany city,Track,Track,14127,716,34267115,43544,42.7318926,-78.7674166,100901,89747,65564,213.819601858424
3702404,37,North Carolina,NC,Alamance County,Havelock,Alamance,Track,Track,28532,252,126524670,51276807,34.8891445,-76.8031779,69656,63771,56458,752.462757589187
26029201,26,Michigan,MI,Alcona County,Detroit,Hubbard Lake,Track,Track,48224,313,1219622,0,42.4296143,-82.9473354,24748,18728,22386,260.97471101629
230285,23,Maine,ME,Androscoggin County,Cape Elizabeth,Auburn city,Track,Track,4107,207,10187671,6123787,43.617979,-70.2230683,119928,107529,75763,615.554282119479
1602680,16,Idaho,ID,Ada County,Idaho Falls,Boise City city,Track,Track,83402,208,6101838,410367,43.5067215,-112.0449867,37283,27204,33047,662.444558186531
39029243,39,Ohio,OH,Adams County,Medina,Rome,Track,Track,44256,330,34288753,106553,41.1776954,-81.8225942,118111,100464,70993,234.244643499278
60214279,6,California,CA,Alameda County,Burbank,Alameda city,Track,Track,91502,818,1052158,0,34.1811419,-118.3067629,47878,35793,34513,791.24494520259
39021593,39,Ohio,OH,Adams County,Steubenville,Rome,Track,Track,43952,740,1165055,64623,40.3510994,-80.616947,21789,17950,20558,332.883865929634
48012500,48,Texas,TX,Brown County,Brownwood,Brownwood city,City,place,76801,325,38439124,66388,31.711932,-98.976123,48538,35617,45063,4644.10619095502
42027764,42,Pennsylvania,PA,Adams County,Saltsburg,Abbottstown,Track,Track,15681,724,90070978,159538,40.5646318,-79.3487786,55099,44435,39603,194.025090775294
1022116,1,Alabama,AL,Autauga County,Rainbow City,Autaugaville,Track,Track,35906,256,7358690,571695,33.9640619,-86.041835,50735,39380,40435,556.211756934633
26022761,26,Michigan,MI,Alcona County,Belleville,Hubbard Lake,Track,Track,48111,734,3067575,1729743,42.2145466,-83.5129886,56099,46368,46139,1041.62067749507
60210779,6,California,CA,Alameda County,Eureka,Alameda city,Track,Track,95501,707,3118704,585951,40.7846083,-124.1798708,85033,73345,55356,134.260498834777
12025890,12,Florida,FL,Alachua County,Port Charlotte,Gainesville city,Track,Track,33981,941,23135571,4431614,26.9510061,-82.2407712,53533,300000,42241,471.256348417737
51021494,51,Virginia,VA,Accomack County,Newport News,Chincoteague,Track,Track,23607,757,1569793,0,36.9841336,-76.4207637,32948,20754,34838,988.189863228695
22024389,22,Louisiana,LA,Acadia Parish,Gibson,Crowley city,Track,Track,70356,985,267478494,16927231,29.6315657,-90.9708791,33909,23623,30981,403.185285551046
8023190,8,Colorado,CO,Adams County,Colorado Springs,Brighton city,Track,Track,80922,719,6309450,0,38.8775704,-104.7004487,90146,300000,40538,480.963304537481
36026844,36,New York,NY,Albany County,Elmira,Albany city,Track,Track,14905,607,1493597,50755,42.0864045,-76.8251795,46504,33881,38299,330.115324930766
42029994,42,Pennsylvania,PA,Adams County,Sunbury,Abbottstown,Track,Track,17801,570,21244284,1741409,40.9649659,-76.600377,55260,45007,43619,386.139778143603
801969,8,Colorado,CO,Chaffee County,Salida,Salida city,City,place,81201,719,6699789,0,38.530283,-105.99878,55052,40649,44974,1703.40846217867
60218569,6,California,CA,Alameda County,Salinas,Alameda city,Track,Track,93906,831,2523220,0,36.6928867,-121.6498809,57221,45477,48102,631.865303334281
37011932,37,North Carolina,NC,Cumberland County,Stedman,Stedman,Town,place,28391,910,5388457,1049,35.013483,-78.700122,66487,54910,50891,266.020873742729
6027199,6,California,CA,Alameda County,Mountain View,Alameda city,Track,Track,94040,650,982161,0,37.3944485,-122.089659,106609,86465,77879,992.61361886089
13027473,13,Georgia,GA,Appling County,Washington,Baxley city,Track,Track,30673,706,209262159,930512,33.7629126,-82.6910911,47201,39524,35496,304.25866750833
48024748,48,Texas,TX,Anderson County,Austin,Elkhart,Track,Track,78750,512,20852688,0,30.3934971,-97.8025854,111073,83417,75634,997.559014915859
42021884,42,Pennsylvania,PA,Adams County,Wilkes Barre,Abbottstown,Track,Track,18705,570,360111,0,41.2493006,-75.8702766,38667,27027,34356,347.346075750292
420210404,42,Pennsylvania,PA,Adams County,Philadelphia,Abbottstown,Track,Track,19147,215,212379,0,39.9348217,-75.1629799,62920,42761,53742,548.148532697955
36011653,36,New York,NY,Monroe County,East Rochester,East Rochester,Village,place,14445,585,3431895,9379,43.11221,-77.487176,55308,46808,43831,1877.2558784994
3802404,38,North Dakota,ND,Adams County,Ellendale,Bucyrus city,Track,Track,58436,701,2450438817,24601324,46.1083789,-98.5755244,84668,79447,47433,89.526075674975
120213690,12,Florida,FL,Alachua County,Largo,Gainesville city,Track,Track,33774,727,1086896,258439,27.8861164,-82.8378879,59819,39348,53108,345.321526759024
34022125,34,New Jersey,NJ,Atlantic County,Egg Harbor Township,Absecon city,Track,Track,8234,609,30299755,779182,39.4337377,-74.5593035,52326,39653,43543,665.813000933057
27023923,27,Minnesota,MN,Aitkin County,Rochester,Aitkin city,Track,Track,55901,507,1700409,0,44.0568872,-92.4862329,62966,61681,40229,252.85026906068
17029709,17,Illinois,IL,Adams County,Highland Park,Camp Point,Track,Track,60035,224,2191714,1612676,42.1844808,-87.7854588,86588,56938,73796,253.421490292267
47025390,47,Tennessee,TN,Anderson County,Johnson City,Clinton city,Track,Track,37601,423,19027726,532809,36.3756463,-82.380743,48733,43048,36702,414.548209896318
360215044,36,New York,NY,Albany County,Schenevus,Albany city,Track,Track,12155,607,256710336,771762,42.5632159,-74.7870347,54367,53371,37948,336.784088108712
37022664,37,North Carolina,NC,Alamance County,Candler,Alamance,Track,Track,28715,828,30541658,0,35.5676485,-82.7256721,34003,29007,26802,495.823034059983
22024529,22,Louisiana,LA,Acadia Parish,Bogalusa,Crowley city,Track,Track,70427,985,4486856,77121,30.7753782,-89.8616597,20110,15312,16684,529.971350849871
42026574,42,Pennsylvania,PA,Adams County,Harrisburg,Abbottstown,Track,Track,17104,717,825210,0,40.2615585,-76.8573167,37601,22900,34229,401.578836935688
39021923,39,Ohio,OH,Adams County,Holland,Rome,Track,Track,43528,419,8985020,0,41.609065,-83.7037509,73808,59202,56456,1714.21414265272
34026885,34,New Jersey,NJ,Atlantic County,New Egypt,Absecon city,Track,Track,8533,609,54144354,523925,40.0710312,-74.5001409,102962,300000,52638,303.809495328359
5011327,5,Arkansas,AR,St. Francis County,Wheatley,Wheatley city,City,place,72392,870,8215627,109,34.919913,-91.105371,45900,38922,48975,96.994957711269
36022714,36,New York,NY,Albany County,Lockport,Albany city,Track,Track,14094,716,4842912,39748,43.1872334,-78.6923138,43371,33903,38394,834.767293106956
29023274,29,Missouri,MO,Adair County,Lee's Summit,Kirksville city,Track,Track,64081,816,14102976,3772322,38.8999132,-94.4674017,75012,300000,60999,13.9996639897596
9021759,9,Connecticut,CT,Fairfield County,Suffield,Bethel,Track,Track,6078,860,45324231,43383,42.0017657,-72.6669536,108457,90648,79267,202.387491517111
26021851,26,Michigan,MI,Alcona County,Grand Haven,Hubbard Lake,Track,Track,49417,616,62029653,14400477,42.9828486,-86.1973824,101123,90142,62113,671.981851183807
47023440,47,Tennessee,TN,Anderson County,Knoxville,Clinton city,Track,Track,37922,865,5672733,638128,35.8792222,-84.1371243,74663,61553,49301,461.741298194491
230225,23,Maine,ME,Androscoggin County,Livermore Falls,Auburn city,Track,Track,4254,207,50974350,1916723,44.4453367,-70.1380761,41220,31926,29775,979.430446120821
22023709,22,Louisiana,LA,Acadia Parish,Alexandria,Crowley city,Track,Track,71306,318,187178163,7519719,31.2627294,-92.6537948,59070,43651,48852,487.582118126889
60214199,6,California,CA,Alameda County,Glendale,Alameda city,Track,Track,91203,818,479027,0,34.1492141,-118.2597025,65155,34908,67101,503.852492402166
360218304,36,New York,NY,Albany County,West Babylon,Albany city,Track,Track,11704,631,1666425,3573,40.7151027,-73.3622148,106164,300000,63875,196.552792864666
24021527,24,Maryland,MD,Allegany County,Annapolis,Little Orleans,Track,Track,21403,410,1435327,977685,38.9687794,-76.4822873,92962,78480,68025,381.342696391295
390211513,39,Ohio,OH,Adams County,Warren,Rome,Track,Track,44484,330,4019600,0,41.2146057,-80.7813251,15599,10101,13361,280.644133333333
6021019,6,California,CA,Alameda County,Bakersfield,Alameda city,Track,Track,93311,661,3628738,0,35.3307397,-119.1012475,101564,91187,67621,1073.41915114599
26021171,26,Michigan,MI,Alcona County,Saint Clair Shores,Hubbard Lake,Track,Track,48081,586,826064,232587,42.4998081,-82.8872545,57370,44048,46525,518.185041744055
6028929,6,California,CA,Alameda County,Fremont,Alameda city,Track,Track,94538,510,1582838,0,37.5313806,-121.9737794,114435,300000,63857,146.423025986057
8023940,8,Colorado,CO,Adams County,Fort Collins,Brighton city,Track,Track,80524,970,2878019,21881,40.5102663,-105.0521344,124944,121375,70932,107.990578712722
29021604,29,Missouri,MO,Adair County,Columbia,Kirksville city,Track,Track,65202,573,136194733,449415,38.9320372,-92.1885932,73490,55081,58836,537.573439898778
18011194,18,Indiana,IN,Rush County,Connersville,Glenwood,Town,place,47331,765,456472,0,39.626079,-85.30205,50789,48728,28771,53.5649281269368
1702589,17,Illinois,IL,Adams County,Chicago,Camp Point,Track,Track,60649,773,189458,178320,41.7652716,-87.5608903,39201,28319,38982,803.610319264708
17028889,17,Illinois,IL,Adams County,Carpentersville,Camp Point,Track,Track,60110,847,2419016,0,42.1123764,-88.2492882,60932,44936,56479,430.251282937289
48014100,48,Texas,TX,Uvalde County,Uvalde,Uvalde Estates,CDP,place,78802,830,15326538,42682,29.168689,-99.836142,49008,32444,39656,433.774175868427
480210258,48,Texas,TX,Anderson County,Highland Village,Elkhart,Track,Track,75077,469,3807953,1531604,33.0903134,-97.0416326,122832,300000,63833,132.856526826856
29024944,29,Missouri,MO,Adair County,Ballwin,Kirksville city,Track,Track,63011,314,6226123,0,38.6086424,-90.5223558,113500,300000,70535,289.4495740724
53021499,53,Washington,WA,Adams County,West Richland,Hatton,Track,Track,99353,509,43521030,1114736,46.3306489,-119.3359909,75155,69564,49552,158.856241029394
4902602,49,Utah,UT,Beaver County,Mendon,Beaver city,Track,Track,84325,435,259605988,548735,41.7085426,-112.0590976,66333,58600,40097,136.759531636097
36021184,36,New York,NY,Albany County,Brooklyn,Albany city,Track,Track,11217,718,163391,0,40.6817476,-73.9828507,76721,53414,74519,887.173310465383
18024215,18,Indiana,IN,Adams County,Indianapolis,Berne city,Track,Track,46256,317,6893954,0,39.8967962,-86.0559045,57393,53121,46924,651.134404232586
21011165,21,Kentucky,KY,Campbell County,Silver Grove,Silver Grove city,City,place,41085,859,2932968,1338383,39.040106,-84.400325,47986,39698,38142,288.054738361883
37026044,37,North Carolina,NC,Alamance County,Charlotte,Alamance,Track,Track,28214,980,11133143,54635,35.2896235,-80.9287866,62725,48541,47185,363.952579218895
4702960,47,Tennessee,TN,Anderson County,Oak Ridge,Clinton city,Track,Track,37830,865,83570809,3434093,35.9282873,-84.3438021,0,0,0,0.0
13026153,13,Georgia,GA,Appling County,Thomson,Baxley city,Track,Track,30824,706,116923786,1408935,33.4111348,-82.5012533,48992,27133,42599,271.792511892476
51026764,51,Virginia,VA,Accomack County,Roanoke,Chincoteague,Track,Track,24014,540,7653930,13127,37.2326188,-79.9572186,104719,99604,72341,221.320160510385
36025064,36,New York,NY,Albany County,Albany,Albany city,Track,Track,12205,518,20943060,21908,42.7469391,-73.8808746,89149,300000,34507,58.2921515227129
360211414,36,New York,NY,Albany County,Churchville,Albany city,Track,Track,14428,585,53430981,309837,43.1574111,-77.8489406,95935,82639,63312,220.254186324228
47023120,47,Tennessee,TN,Anderson County,Bulls Gap,Clinton city,Track,Track,37711,423,66595649,21434,36.3024337,-83.0682545,48576,38475,28798,406.052524475563
13023463,13,Georgia,GA,Appling County,Hartsfield,Baxley city,Track,Track,31756,229,351293496,7109989,31.14919,-83.9179482,47434,34268,37798,408.921743934172
45022538,45,South Carolina,SC,Abbeville County,Simpsonville,Abbeville city,Track,Track,29681,864,7712515,0,34.7373354,-82.2632243,43779,32200,41197,369.756285852234
72021216,72,Puerto Rico,PR,Adjuntas Municipio,Guaynabo,Adjuntas,Track,Track,970,787,1649790,6842,18.3908048,-66.1294315,31604,26129,22577,415.685986669272
48022838,48,Texas,TX,Anderson County,Katy,Elkhart,Track,Track,77494,281,5461160,46627,29.7751464,-95.790629,85209,61455,62568,810.817644767057
2402857,24,Maryland,MD,Allegany County,Bethesda,Little Orleans,Track,Track,20816,301,2461642,141694,38.9541484,-77.1108341,170381,191070,80062,363.494048799649
45022038,45,South Carolina,SC,Abbeville County,Hartsville,Abbeville city,Track,Track,29550,843,40161503,738889,34.4033033,-80.0701601,50668,41213,37233,496.350421649023
9022789,9,Connecticut,CT,Fairfield County,Wallingford,Bethel,Track,Track,6492,203,5227304,16182,41.444928,-72.8029718,78565,53110,53053,160.458377323124
2302655,23,Maine,ME,Androscoggin County,Windham,Auburn city,Track,Track,4062,207,31172281,6089318,43.843207,-70.4391426,71322,67224,44660,281.911534916277
55025328,55,Wisconsin,WI,Adams County,Germantown,Adams city,Track,Track,53022,262,5101707,0,43.2066343,-88.1128746,121533,300000,59782,117.888893543132
19022935,19,Iowa,IA,Adair County,Davenport,Greenfield city,Track,Track,52803,563,1592945,0,41.5499122,-90.5664827,65044,300000,43705,168.527753231935
60269,6,California,CA,Alameda County,Oakland,Alameda city,Track,Track,94602,510,747405,0,37.7936093,-122.2079606,58202,48498,45414,1066.12282009712
34021275,34,New Jersey,NJ,Atlantic County,E Brunswick,Absecon city,Track,Track,8816,732,5991223,68516,40.4538994,-74.411108,90611,82171,63854,868.802290941167
2402437,24,Maryland,MD,Allegany County,Waldorf,Little Orleans,Track,Track,20603,301,6043595,55120,38.6477177,-76.9353838,126748,124474,65699,468.385263000025
48029178,48,Texas,TX,Anderson County,Carrollton,Elkhart,Track,Track,75006,972,2528836,0,32.9481362,-96.8946083,64621,57281,32665,300.584847645953
28021435,28,Mississippi,MS,Adams County,Jackson,Cloverdale,Track,Track,39212,601,10592695,0,32.2820671,-90.2675496,51072,44323,30718,327.722957443767
4002463,40,Oklahoma,OK,Adair County,Oklahoma City,Bell,Track,Track,73119,405,2069153,0,35.4344808,-97.5638245,31668,28402,23479,566.383864609389
2402327,24,Maryland,MD,Allegany County,Baltimore,Little Orleans,Track,Track,21234,410,875053,0,39.3964395,-76.5600499,59734,58328,35400,673.62839378473
1022696,1,Alabama,AL,Autauga County,Mount Olive,Autaugaville,Track,Track,35117,205,105701999,497054,33.6819146,-86.9203958,74951,65918,49663,478.005005981772
9023119,9,Connecticut,CT,Fairfield County,Norwich,Bethel,Track,Track,6360,860,5707486,779720,41.518431,-72.0635318,67190,65657,40979,476.606854928686
42023454,42,Pennsylvania,PA,Adams County,Pittsburgh,Abbottstown,Track,Track,15210,412,392889,0,40.4246513,-80.0012947,49590,42783,34129,200.323455197677
17026819,17,Illinois,IL,Adams County,Oak Lawn,Camp Point,Track,Track,60453,708,1396248,0,41.727213,-87.7590953,83672,300000,59252,130.527908393862
39029653,39,Ohio,OH,Adams County,Dayton,Rome,Track,Track,45439,937,7420725,0,39.6827088,-84.1910842,97474,300000,73939,115.160896882634
18023275,18,Indiana,IN,Adams County,Franklin,Berne city,Track,Track,46131,317,136550808,90749,39.5874763,-86.029468,64228,300000,31110,801.000426803644
21022119,21,Kentucky,KY,Adair County,Frankfort,Columbia city,Track,Track,40601,502,1099280,181404,38.1915951,-84.8756454,42212,33233,37007,264.358895594892
1102351,11,District of Columbia,DC,District of Columbia,Washington,Washington city,Track,Track,20008,202,271210,2414,38.9208738,-77.0462674,141845,146740,78103,91.5553514786145
39023693,39,Ohio,OH,Adams County,Saint Paris,Rome,Track,Track,43072,937,254963982,1528641,40.1538168,-83.9647388,56216,52408,36780,344.686221771261
3802554,38,North Dakota,ND,Adams County,Center,Bucyrus city,Track,Track,58530,701,1871296131,22476243,47.1180789,-101.3314198,75220,69770,50339,175.055926645349
18024165,18,Indiana,IN,Adams County,Indianapolis,Berne city,Track,Track,46220,317,2978741,0,39.8622685,-86.1504822,135085,147106,76460,165.216021851992
402713,4,Arizona,AZ,Apache County,Mesa,Chinle,Track,Track,85213,480,2544122,0,33.4445016,-111.7792986,76595,61487,59304,682.003040676681
21022409,21,Kentucky,KY,Adair County,Munfordville,Columbia city,Track,Track,42765,270,200868998,1855842,37.2300008,-85.9230438,26900,18351,41978,356.418296581658
360216344,36,New York,NY,Albany County,Flushing,Albany city,Track,Track,11367,718,289075,0,40.7293975,-73.818762,68518,56487,58234,276.02222494597
36028964,36,New York,NY,Albany County,Brooklyn,Albany city,Track,Track,11228,718,133505,0,40.6153783,-74.0107586,94679,74325,77232,142.324925928822
5302929,53,Washington,WA,Adams County,Steilacoom,Hatton,Track,Track,98388,253,1947576,0,47.1661656,-122.590846,76466,58198,59819,529.036697457545
29023624,29,Missouri,MO,Adair County,Aurora,Kirksville city,Track,Track,65605,417,12162143,60006,36.9713432,-93.7318467,41173,38141,29330,342.254317128682
20022860,20,Kansas,KS,Allen County,Topeka,Gas city,Track,Track,66612,785,5456786,172382,39.0489842,-95.6720589,34332,22708,29100,227.093804890373
18024845,18,Indiana,IN,Adams County,Bloomfield,Berne city,Track,Track,47424,812,166684138,78061,39.0693226,-86.6462516,70003,300000,48200,197.294423676536
4002833,40,Oklahoma,OK,Adair County,Tulsa,Bell,Track,Track,74106,918,1208085,0,36.169131,-95.9973961,49844,36082,50800,413.746297045635
2902114,29,Missouri,MO,Adair County,Fulton,Kirksville city,Track,Track,65251,573,215562662,3294137,38.880163,-92.0461695,71552,53193,56705,1062.7864542098
37027704,37,North Carolina,NC,Alamance County,Raleigh,Alamance,Track,Track,27612,919,3421018,0,35.8474052,-78.6720351,82354,81708,59270,573.497842705368
47023470,47,Tennessee,TN,Anderson County,Powell,Clinton city,Track,Track,37849,865,6437124,0,36.0330877,-84.0501738,37869,31120,27134,450.346954959238
220289,22,Louisiana,LA,Acadia Parish,Shreveport,Crowley city,Track,Track,71105,318,2160151,6678,32.4749329,-93.7298919,61608,50217,48425,607.105133801891
5502988,55,Wisconsin,WI,Adams County,Plover,Adams city,Track,Track,54467,715,23967892,270376,44.4591439,-89.5133239,84348,74616,58375,935.611056291347
17013647,17,Illinois,IL,Lake County,Lake Villa,Venetian Village,CDP,place,60046,847,4569028,1579412,42.405044,-88.050163,72209,69791,39834,483.735502435837
13023923,13,Georgia,GA,Appling County,Stone Mountain,Baxley city,Track,Track,30083,678,7241829,23350,33.7467447,-84.2083098,46887,38914,24319,357.121049060452
360220124,36,New York,NY,Albany County,Tarrytown,Albany city,Track,Track,10591,914,1442009,2815728,41.0771988,-73.868318,106201,300000,78840,125.425354924692
60219569,6,California,CA,Alameda County,Mission Viejo,Alameda city,Track,Track,92691,949,5604498,0,33.6829142,-117.6498083,146300,135413,68496,165.116905736416
39012082,39,Ohio,OH,Hardin County,Kenton,Kenton city,City,place,43326,419,13049370,243507,40.644541,-83.609951,41462,34614,33729,2435.08254452812
60210179,6,California,CA,Alameda County,Pasadena,Alameda city,Track,Track,91107,626,2464480,0,36.743063,-119.7933565,26936,24459,35385,275.486991279271
42026504,42,Pennsylvania,PA,Adams County,Boiling Springs,Abbottstown,Track,Track,17007,717,24741010,85770,40.1723097,-77.1388187,93694,300000,53920,487.640456776762
34025345,34,New Jersey,NJ,Atlantic County,Hamilton,Absecon city,Track,Track,8690,609,4975929,63107,40.2398983,-74.6663253,108172,300000,56548,215.452247149344
60220489,6,California,CA,Alameda County,Fountain Valley,Alameda city,Track,Track,92708,714,1273022,0,33.6939764,-117.9845192,83509,60218,66398,218.890497191604
13025833,13,Georgia,GA,Appling County,Kathleen,Baxley city,Track,Track,31047,478,32986139,1172259,32.5213601,-83.6922974,84841,77208,53315,1004.60307135628
39022583,39,Ohio,OH,Adams County,Massillon,Rome,Track,Track,44647,330,4192490,0,40.7993175,-81.5569391,50886,42353,35652,1226.39306657907
4502258,45,South Carolina,SC,Abbeville County,Charleston,Abbeville city,Track,Track,29401,843,1240135,1075737,32.786847,-79.9259028,79959,58489,76496,451.064673455686
60217859,6,California,CA,Alameda County,Canyon Country,Alameda city,Track,Track,91351,661,10767876,587,34.4620693,-118.395844,88448,300000,44857,193.384653208844
48024938,48,Texas,TX,Anderson County,Uvalde,Elkhart,Track,Track,78802,830,5546801,2201,29.2225717,-99.7755996,53462,42386,44353,686.069500794057
48029338,48,Texas,TX,Anderson County,Irving,Elkhart,Track,Track,75015,972,1881324,2461,32.8580258,-96.9849976,58034,39054,48795,360.221747156825
1022006,1,Alabama,AL,Autauga County,Eclectic,Autaugaville,Track,Track,36024,334,165330802,1570890,32.6328834,-86.0345965,51818,50579,30368,368.451033314108
2502960,25,Massachusetts,MA,Barnstable County,Braintree,Barnstable Town city,Track,Track,2184,781,3196221,101699,42.2097226,-70.9780239,102014,95752,59650,392.339658491909
1601319,16,Idaho,ID,Clark County,Dubois,Dubois city,City,place,83423,208,7064977,9714,44.171834,-112.228261,47891,35453,34518,129.396248079956
26029571,26,Michigan,MI,Alcona County,Detroit,Hubbard Lake,Track,Track,48209,313,3958988,1047762,42.3036532,-83.0973176,29067,17863,28781,128.125069688636
3402465,34,New Jersey,NJ,Atlantic County,Berlin,Absecon city,Track,Track,8009,856,9292608,33522,39.7920594,-74.9369855,89152,78483,65643,1168.75677889947
55024118,55,Wisconsin,WI,Adams County,Franklin,Adams city,Track,Track,53132,414,38891258,7794,42.8672363,-88.0033793,79448,56471,56596,213.688026113065
35021745,35,New Mexico,NM,Bernalillo County,Santa Fe,Albuquerque city,Track,Track,87501,505,12565061,0,35.7037625,-105.9620403,89452,78726,60619,181.916033955201
36029074,36,New York,NY,Albany County,Brooklyn,Albany city,Track,Track,11205,718,269728,0,40.6912795,-73.9626407,64925,51878,52625,665.873169364908
13026123,13,Georgia,GA,Appling County,Valdosta,Baxley city,Track,Track,31601,229,318706778,12838146,30.7147536,-83.3360071,53993,44252,42948,474.578817395972
21023369,21,Kentucky,KY,Adair County,Hyden,Columbia city,Track,Track,41749,606,417401219,6502424,37.161066,-83.4187712,38338,24252,41006,218.18158784551
120210600,12,Florida,FL,Alachua County,Miami,Gainesville city,Track,Track,33133,305,1603955,0,25.7469009,-80.229428,56661,37549,59895,228.590542127521
5102914,51,Virginia,VA,Accomack County,Unionville,Chincoteague,Track,Track,22567,540,427824700,2544046,38.2445273,-77.9774496,71694,63689,54562,1645.46555701489
6023349,6,California,CA,Alameda County,Lancaster,Alameda city,Track,Track,93535,661,1309408,0,34.6822484,-118.1080444,50197,35625,41437,801.02207815209
28022295,28,Mississippi,MS,Adams County,Summit,Cloverdale,Track,Track,39666,601,231749174,140289,31.2625884,-90.3175102,49074,43174,41781,486.10393289566
2602271,26,Michigan,MI,Alcona County,Dewitt,Hubbard Lake,Track,Track,48820,517,7463596,53322,42.8242579,-84.5595692,85537,68142,65146,756.266171949892
40021553,40,Oklahoma,OK,Adair County,Lawton,Bell,Track,Track,73505,580,6404903,0,34.6082648,-98.4622698,56296,46653,32348,387.990397330178
360219594,36,New York,NY,Albany County,Newark,Albany city,Track,Track,14513,315,10042696,0,43.0379335,-77.0834025,33952,24411,24040,239.297321867869
39012692,39,Ohio,OH,Summit County,Twinsburg,Twinsburg city,City,place,44087,330,35668950,81522,41.322594,-81.443123,84055,71322,61401,3723.38762536977
17025369,17,Illinois,IL,Adams County,Chicago,Camp Point,Track,Track,60652,773,1148943,0,41.7382302,-87.7118234,98281,84821,61057,236.118775323081
51011331,51,Virginia,VA,Prince William County,Woodbridge,Potomac Mills,CDP,place,22192,703,10429683,42279,38.655646,-77.302511,97865,78914,72581,869.289902914804
45022308,45,South Carolina,SC,Abbeville County,Lake City,Abbeville city,Track,Track,29560,843,41562419,126603,33.8389294,-79.7194929,57172,40485,56146,416.473551795855
6023199,6,California,CA,Alameda County,El Segundo,Alameda city,Track,Track,90245,310,871913,0,33.9201935,-118.418063,103211,81135,67873,622.62360829192
480213998,48,Texas,TX,Anderson County,Houston,Elkhart,Track,Track,77092,713,1886273,8667,29.8447655,-95.4793216,74270,300000,48610,268.35490119891
60218509,6,California,CA,Alameda County,Los Banos,Alameda city,Track,Track,93635,209,8081540,0,37.049609,-120.8635648,54495,42798,48414,361.622135045268
29022104,29,Missouri,MO,Adair County,Kansas City,Kirksville city,Track,Track,64155,816,8545517,13813,39.2730872,-94.5796524,81268,63767,55438,384.287492643216
120211130,12,Florida,FL,Alachua County,Homestead,Gainesville city,Track,Track,33030,305,10024096,34540,25.5019971,-80.4592232,62582,49270,38359,370.621654700278
17012827,17,Illinois,IL,White County,Grayville,Grayville city,City,place,62844,618,5515517,110335,38.255135,-87.996927,46211,34465,36880,257.555830961826
360214154,36,New York,NY,Albany County,Utica,Albany city,Track,Track,13501,315,1197543,0,43.09116,-75.2441812,27026,13469,42090,500.371365917635
36026204,36,New York,NY,Albany County,Bronx,Albany city,Track,Track,10458,718,182164,0,40.8691444,-73.8869972,34451,27800,28377,396.643510863393
55024148,55,Wisconsin,WI,Adams County,Tomah,Adams city,Track,Track,54660,608,16352693,13984,43.9916554,-90.4813622,45239,37346,32865,422.455502736399
6023389,6,California,CA,Alameda County,Palmdale,Alameda city,Track,Track,93551,661,3305728,0,34.5966435,-118.155582,74123,58826,54555,1036.25955308176
4023263,4,Arizona,AZ,Apache County,Phoenix,Chinle,Track,Track,85032,602,5142712,18647,33.6896109,-111.9086338,122412,105159,94141,215.488299818658
5021896,5,Arkansas,AR,Arkansas County,Jasper,Stuttgart city,Track,Track,72641,870,600868738,2753253,36.0612239,-93.1982011,50710,40104,40020,420.75123007049
1022076,1,Alabama,AL,Autauga County,Gadsden,Autaugaville,Track,Track,35901,256,22461766,717,34.0476407,-86.0342629,65909,49884,54872,179.458553238953
60219009,6,California,CA,Alameda County,Brea,Alameda city,Track,Track,92821,714,3085738,0,33.9153582,-117.9082621,69752,64980,50794,237.255064720305
72021536,72,Puerto Rico,PR,Adjuntas Municipio,Lares,Adjuntas,Track,Track,669,787,25782209,18091,18.3678726,-66.8556651,24672,20992,19976,264.719198165851
1022126,1,Alabama,AL,Autauga County,Glencoe,Autaugaville,Track,Track,35905,256,57350608,1090995,33.918413,-85.9183325,55639,300000,47971,624.013735835527
6021079,6,California,CA,Alameda County,Mcfarland,Alameda city,Track,Track,93250,661,9348876,0,35.6738272,-119.2425798,38045,31876,30117,1684.43825484621
22024459,22,Louisiana,LA,Acadia Parish,Simpson,Crowley city,Track,Track,71474,337,828533029,1369229,31.2330338,-93.0304239,55043,52324,37427,201.757732282769
1021286,1,Alabama,AL,Autauga County,Gulf Shores,Autaugaville,Track,Track,36547,251,34146324,8917573,30.2696285,-87.637277,65583,300000,59906,202.728190356
6026839,6,California,CA,Alameda County,Santa Barbara,Alameda city,Track,Track,93101,805,509990,0,34.4261948,-119.7150662,73453,57604,56665,709.594445380178
1002502,10,Delaware,DE,Kent County,Newark,Camden,Track,Track,19711,302,17029332,0,39.7145751,-75.737865,97065,89052,59272,99.8233289623951
31021617,31,Nebraska,NE,Adams County,Lincoln,Ayr,Track,Track,68521,402,8545217,0,40.8640428,-96.7383976,98976,300000,47182,238.346187300362
39025383,39,Ohio,OH,Adams County,New Madison,Rome,Track,Track,45346,937,323140711,1026402,39.9988846,-84.7143251,73248,73660,37677,179.857292875972
60210049,6,California,CA,Alameda County,South Lake Tahoe,Alameda city,Track,Track,96150,530,4779638,541288,38.9280929,-120.0091813,112677,94894,85957,218.557163899164
260210401,26,Michigan,MI,Alcona County,Inkster,Hubbard Lake,Track,Track,48141,734,3502745,7366,42.2730855,-83.3326751,61343,47241,48386,295.822011198055
5602174,56,Wyoming,WY,Albany County,Gillette,Laramie city,Track,Track,82717,307,88282216,111078,44.2622761,-105.4045602,86662,73988,56250,338.68077323671
60221139,6,California,CA,Alameda County,Jurupa Valley,Alameda city,Track,Track,92509,951,938223,0,33.9943219,-117.4071313,46706,44628,30245,303.991288421002
18025945,18,Indiana,IN,Adams County,Evansville,Berne city,Track,Track,47710,812,15935154,82402,38.0445904,-87.5790956,34823,24308,28214,802.438242313291
27025083,27,Minnesota,MN,Aitkin County,Murdock,Aitkin city,Track,Track,56271,320,556239330,7362398,45.2779375,-95.3695094,74833,61319,53508,149.325827456607
17028569,17,Illinois,IL,Adams County,Mazon,Camp Point,Track,Track,60444,815,389968988,1662711,41.1909671,-88.4640243,79848,63001,60011,206.58824543573
6023649,6,California,CA,Alameda County,Merced,Alameda city,Track,Track,95340,209,4246276,0,37.3136674,-120.4472741,68517,54406,53525,1122.91671565436
27023223,27,Minnesota,MN,Aitkin County,Minneapolis,Aitkin city,Track,Track,55404,612,682644,0,44.9625323,-93.2537455,24385,8847,33928,303.76416197057
26027261,26,Michigan,MI,Alcona County,Commerce Township,Hubbard Lake,Track,Track,48382,248,9838634,1115441,42.5894867,-83.4530103,94226,85171,64484,231.752508519489
3201258,32,Nevada,NV,Lyon County,Smith,Smith Valley,CDP,place,89430,775,312407923,4983228,38.788287,-119.338591,91622,67269,76677,236.121225686536
3501823,35,New Mexico,NM,Socorro County,Polvadera,Polvadera,CDP,place,87828,505,2510635,0,34.202039,-106.917202,17784,11572,20346,170.656453314133
4024383,4,Arizona,AZ,Apache County,Scottsdale,Chinle,Track,Track,85256,480,211716270,7251101,33.5222009,-111.7981089,57997,39241,60766,170.42513989795
60218949,6,California,CA,Alameda County,Nevada City,Alameda city,Track,Track,95959,530,29080729,9642,39.2508975,-121.045279,84697,73012,57239,472.940890671602
24023627,24,Maryland,MD,Allegany County,Silver Spring,Little Orleans,Track,Track,20902,301,1784909,1925,39.0389118,-77.0339921,105437,113156,71012,290.517344465214
26026781,26,Michigan,MI,Alcona County,Monroe,Hubbard Lake,Track,Track,48162,734,15004525,111254,41.9439665,-83.3441661,51071,42796,35773,288.827372572463
60212239,6,California,CA,Alameda County,Reseda,Alameda city,Track,Track,91335,818,1278601,0,34.1974433,-118.5273253,67360,40039,61805,469.153272714883
17027069,17,Illinois,IL,Adams County,Country Club Hills,Camp Point,Track,Track,60478,708,5167658,35030,41.5635098,-87.7316996,73224,300000,46093,246.058961326915
19023115,19,Iowa,IA,Adair County,Reinbeck,Greenfield city,Track,Track,50669,319,341638756,150772,42.2385786,-92.5789367,61575,54257,46975,408.879652569503
360216804,36,New York,NY,Albany County,Bayside,Albany city,Track,Track,11361,718,357723,0,40.7529118,-73.7702818,100518,300000,73284,127.659512309172
1102521,11,District of Columbia,DC,District of Columbia,Washington,Washington city,Track,Track,20009,202,778052,0,38.9102408,-76.9812669,56524,48608,44165,203.721782119505
20021980,20,Kansas,KS,Allen County,Fontana,Gas city,Track,Track,66026,913,533589899,6934786,38.4861373,-94.8226807,96186,62240,73379,134.727729986718
4601778,46,South Dakota,SD,Lyman County,Presho,Vivian,CDP,place,57568,605,4477810,0,43.927267,-100.301123,62507,300000,24578,12.2994286312552
47024590,47,Tennessee,TN,Anderson County,Memphis,Clinton city,Track,Track,38117,901,3210263,0,35.0982628,-89.909105,90503,72741,74395,389.675539693799
26027971,26,Michigan,MI,Alcona County,Rochester Hills,Hubbard Lake,Track,Track,48309,248,4655154,0,42.628032,-83.1899474,88803,75842,63711,399.449087710944
47024740,47,Tennessee,TN,Anderson County,Memphis,Clinton city,Track,Track,38134,901,7648531,0,35.17621,-89.8851161,56868,39091,53638,496.990909640707
28021695,28,Mississippi,MS,Adams County,Scooba,Cloverdale,Track,Track,39358,662,1097673900,1533996,32.7543364,-88.5266718,32094,29054,21623,441.758029367872
34027275,34,New Jersey,NJ,Atlantic County,Passaic,Absecon city,Track,Track,7055,973,603976,0,40.8539301,-74.1299464,49130,31192,49987,539.798961469693
21021989,21,Kentucky,KY,Adair County,Lexington,Columbia city,Track,Track,40511,859,3629085,0,38.0823112,-84.479623,42733,21255,48882,260.858470927395
37011792,37,North Carolina,NC,Beaufort County,Washington,Pinetown,CDP,place,27889,252,2612775,0,35.61103,-76.8558,52154,300000,24662,16.8993259460351
51024264,51,Virginia,VA,Accomack County,Mathews,Chincoteague,Track,Track,23109,804,131157408,76188146,37.3879899,-76.3249779,51265,300000,46082,182.096305146158
12024540,12,Florida,FL,Alachua County,Mims,Gainesville city,Track,Track,32754,321,40834011,16480858,28.7246171,-80.8465863,67463,56267,44785,265.883080075449
6026929,6,California,CA,Alameda County,San Jose,Alameda city,Track,Track,95126,408,2134649,0,37.3299506,-121.9279069,134355,127527,77034,626.152392551659
3702684,37,North Carolina,NC,Alamance County,Winston Salem,Alamance,Track,Track,27107,336,16649950,57436,36.03629,-80.203099,46415,37233,35948,1542.31227168351
29024414,29,Missouri,MO,Adair County,O'fallon,Kirksville city,Track,Track,63368,636,5336541,0,38.7688192,-90.714047,109026,300000,58838,271.381064722695
1301969,13,Georgia,GA,Taylor County,Butler,Butler city,City,place,31006,478,8413760,43948,32.557194,-84.23733,40631,28923,40907,547.546202060277
24024157,24,Maryland,MD,Allegany County,Upper Marlboro,Little Orleans,Track,Track,20774,301,2317196,15200,38.8845883,-76.8056304,93957,82533,54323,195.714751010368
3202687,32,Nevada,NV,Churchill County,Truckee,Fallon city,Track,Track,96161,530,0,29684290,39.1412571,-119.9741471,0,0,0,0.0
60225159,6,California,CA,Alameda County,El Cajon,Alameda city,Track,Track,92019,619,1623060,0,32.7921847,-116.9264026,36739,25081,46944,367.057955374446
60220369,6,California,CA,Alameda County,Garden Grove,Alameda city,Track,Track,92843,714,1303759,0,33.774216,-117.9350465,100406,80400,63413,195.718046345239
48021368,48,Texas,TX,Anderson County,Grand Prairie,Elkhart,Track,Track,75050,972,2438735,0,32.747314,-97.0277584,40855,34200,34739,1074.36064062869
801949,8,Colorado,CO,Weld County,New Raymer,Raymer (New Raymer),Town,place,80742,970,2079349,0,40.607952,-103.843374,56190,300000,44062,20.9992652804312
48023008,48,Texas,TX,Anderson County,Cypress,Elkhart,Track,Track,77429,281,4274319,37939,29.9575435,-95.6140603,90894,74303,61813,713.324528034093
1502901,15,Hawaii,HI,Hawaii County,Mililani,Hilo,Track,Track,96789,808,1355156,0,21.4723996,-157.9986654,99483,93605,51951,314.065942217452
2801796,28,Mississippi,MS,Lauderdale County,Collinsville,Collinsville,CDP,place,39325,601,36904288,68346,32.487323,-88.844307,74709,69195,54653,314.876499698708
360210064,36,New York,NY,Albany County,Brooklyn,Albany city,Track,Track,11222,718,237963,0,40.730219,-73.957763,82430,66715,63113,273.819873990911
42012306,42,Pennsylvania,PA,Luzerne County,Berwick,East Berwick,CDP,place,18603,570,2230231,431536,41.069717,-76.217444,57294,46024,40871,577.74776904831
19021675,19,Iowa,IA,Adair County,Britt,Greenfield city,Track,Track,50423,641,178168802,1027395,43.1755041,-93.8013734,56979,43564,42906,300.853893072413
36028614,36,New York,NY,Albany County,Dexter,Albany city,Track,Track,13634,315,117041425,1082635,43.9805388,-76.0191435,70621,60808,46180,380.212909521406
3302702,33,New Hampshire,NH,Belknap County,Nashua,Alton,Track,Track,3060,603,5062546,332822,42.7428723,-71.4529334,96270,300000,65031,191.089550801106
53021149,53,Washington,WA,Adams County,Lake Stevens,Hatton,Track,Track,98258,425,4726711,196404,48.0191053,-122.0667747,91120,85745,55113,854.832726308581
17026139,17,Illinois,IL,Adams County,Skokie,Camp Point,Track,Track,60077,847,1135605,0,42.0444492,-87.7555401,46759,37885,37545,149.99323983759
2302985,23,Maine,ME,Androscoggin County,Rumford,Auburn city,Track,Track,4276,207,86276274,3239017,44.5079476,-70.6100356,55609,50203,38659,308.385903443858
22022249,22,Louisiana,LA,Acadia Parish,New Iberia,Crowley city,Track,Track,70563,337,19796663,565449,30.0136639,-91.7813615,112179,300000,61264,190.82098098584
27011315,27,Minnesota,MN,Polk County,Clearbrook,Gully city,City,place,56634,218,637316,0,47.768437,-95.622861,43106,43256,20230,38.7322804081781
60213299,6,California,CA,Alameda County,Los Angeles,Alameda city,Track,Track,90015,323,1003327,0,34.009617,-118.2439607,63161,300000,51122,108.597717234911
502336,5,Arkansas,AR,Arkansas County,Ashdown,Stuttgart city,Track,Track,71822,870,147041746,6076630,33.6327452,-94.1518784,53566,37055,50987,538.145078922036
2102589,21,Kentucky,KY,Adair County,Louisville,Columbia city,Track,Track,40223,502,13670502,326441,38.2625881,-85.5208622,102129,82322,77968,960.072566686524
42011916,42,Pennsylvania,PA,Union County,Watsontown,Allenwood,CDP,place,17777,570,1521762,0,41.108096,-76.898157,55012,48693,38797,116.462477796682
12022490,12,Florida,FL,Alachua County,Miami,Gainesville city,Track,Track,33175,305,1187564,115050,25.7216371,-80.4267493,63628,56555,41435,806.163642806673
37027144,37,North Carolina,NC,Alamance County,China Grove,Alamance,Track,Track,28023,704,30467830,243169,35.5157551,-80.5705368,45493,300000,22014,281.927805859483
47021750,47,Tennessee,TN,Anderson County,Lafollette,Clinton city,Track,Track,37766,423,17100668,0,36.3919856,-84.0925631,52503,39633,36207,228.892170149874
48027958,48,Texas,TX,Anderson County,Plano,Elkhart,Track,Track,75023,469,2884380,0,33.0490717,-96.7610943,82419,300000,60386,328.385748165922
3302822,33,New Hampshire,NH,Belknap County,Hooksett,Alton,Track,Track,3106,603,32445651,1531913,43.0756328,-71.4763075,110111,300000,59981,153.819325820584
26011403,26,Michigan,MI,Saginaw County,Saginaw,Saginaw city,City,place,48601,989,44306127,1889984,43.419945,-83.950172,36338,28008,33175,14833.1210106313
26022661,26,Michigan,MI,Alcona County,Dearborn Heights,Hubbard Lake,Track,Track,48127,313,1620065,0,42.3155357,-83.2987721,65509,50201,57537,850.850708585832
36024614,36,New York,NY,Albany County,Ellenville,Albany city,Track,Track,12428,845,129945040,6314963,41.8018748,-74.4239284,58644,46390,44034,460.383347197461
4601468,46,South Dakota,SD,Brookings County,Brookings,Brookings city,City,place,57006,605,34815541,252977,44.302325,-96.786483,56359,44247,48047,5582.63240681652
8011009,8,Colorado,CO,Boulder County,Gold Hill,Sunshine,CDP,place,80302,720,4479912,0,40.063653,-105.369587,149502,300000,41656,9.59831196287852
25023220,25,Massachusetts,MA,Barnstable County,South Hadley,Barnstable Town city,Track,Track,1075,413,7386372,263613,42.2290052,-72.59401,48722,35026,46129,454.319854814127
13022913,13,Georgia,GA,Appling County,Athens,Baxley city,Track,Track,30605,706,3487401,96579,33.935961,-83.3355465,30323,27398,22260,564.045986743082
48023328,48,Texas,TX,Anderson County,Jasper,Elkhart,Track,Track,75951,409,13162330,0,30.9308882,-94.005857,43999,34600,40266,716.358381699011
6025859,6,California,CA,Alameda County,San Diego,Alameda city,Track,Track,92123,858,2697183,0,32.7884171,-117.1558879,75034,68493,50265,820.152974307522
12027210,12,Florida,FL,Alachua County,Clewiston,Gainesville city,Track,Track,33440,863,189864450,734626,26.7032433,-80.9759517,46491,300000,17681,109.930032588991
47022380,47,Tennessee,TN,Anderson County,Nashville,Clinton city,Track,Track,37205,615,10530927,0,36.0978,-86.8605346,156379,167502,89862,82.1586195887873
5022466,5,Arkansas,AR,Arkansas County,Fort Smith,Stuttgart city,Track,Track,72904,479,6970287,625555,35.4160646,-94.3742474,31717,25789,24024,279.525185568603
12023310,12,Florida,FL,Alachua County,Clearwater,Gainesville city,Track,Track,33765,727,204823621,8612729,28.4017897,-82.3903638,71416,55055,54657,501.674103816662
120215070,12,Florida,FL,Alachua County,Winter Springs,Gainesville city,Track,Track,32708,407,8233042,716896,28.68389,-81.2509395,77808,63310,58705,438.809824123451
42024434,42,Pennsylvania,PA,Adams County,Elderton,Abbottstown,Track,Track,15736,724,168958521,1911234,40.6867498,-79.3666624,52800,45744,38524,531.380378214549
360214164,36,New York,NY,Albany County,Utica,Albany city,Track,Track,13502,315,7640611,662077,43.103084,-75.1909679,0,0,0,0.0
55024278,55,Wisconsin,WI,Adams County,Appleton,Adams city,Track,Track,54911,920,3228350,0,44.2894852,-88.4056242,65397,59599,40891,216.28933953597
47021950,47,Tennessee,TN,Anderson County,Tullahoma,Clinton city,Track,Track,37388,931,21233739,0,35.3694591,-86.2426157,47683,300000,37373,436.859695100425
48013390,48,Texas,TX,Mason County,Mason,Mason city,City,place,76856,325,9461408,84934,30.747713,-99.228603,35252,28290,30250,628.803987104973
240287,24,Maryland,MD,Allegany County,Pasadena,Little Orleans,Track,Track,21122,410,2238648,401032,39.1448828,-76.5344283,99820,94089,51243,628.952277208407
40023343,40,Oklahoma,OK,Adair County,Oologah,Bell,Track,Track,74053,918,268729041,40396021,36.5280935,-95.7069187,65438,60824,43603,419.3378754658
420211584,42,Pennsylvania,PA,Adams County,Philadelphia,Abbottstown,Track,Track,19154,215,502706,0,40.0973154,-74.9805152,54674,300000,40918,394.726700509181
26022861,26,Michigan,MI,Alcona County,Douglas,Hubbard Lake,Track,Track,49406,269,68113052,3526945,42.6325579,-86.1802934,85963,72311,62421,132.556611204807
21022849,21,Kentucky,KY,Adair County,Louisville,Columbia city,Track,Track,40218,502,3197003,2595,38.2003937,-85.6410104,49666,300000,29140,317.596783839351
480211718,48,Texas,TX,Anderson County,La Marque,Elkhart,Track,Track,77568,409,3293044,0,29.3738058,-94.98671,46759,35251,42792,340.720112719944
53024519,53,Washington,WA,Adams County,Tacoma,Hatton,Track,Track,98446,253,3932087,0,47.1216337,-122.4054248,81797,70056,41515,247.512108227134
53022109,53,Washington,WA,Adams County,Castle Rock,Hatton,Track,Track,98611,360,188643966,6692616,46.3203752,-122.842564,66527,42176,58553,253.360407991198
